{"type":"FeatureCollection","features":[{"type":"Feature","geometry":{"type":"Point","coordinates":[-74.125645,44.517061]},"properties":{"pond":"020058","name":"LITTLE HOPE POND","specieslist":"Brown bullhead, Pumpkinseed, Pumpkinseed, White sucker, Golden shiner, N. redbelly dace, Brown bullhead, Golden shiner, N. redbelly dace","fishsurveydate":1995,"avgph":"5.7"}},{"type":"Feature","geometry":{"type":"Point","coordinates":[-74.125912,44.513561]},"properties":{"pond":"020059","name":"BIG HOPE POND","specieslist":"Brown trout, Golden shiner, N. redbelly dace, White sucker, Brown bullhead, Pumpkinseed, Common shiner, Brook trout, Lake trout, Splake, Golden shiner, White sucker, Brown bullhead, Pumpkinseed","fishsurveydate":1994,"avgph":"6.2"}},{"type":"Feature","geometry":{"type":"Point","coordinates":[-74.357108,44.305618]},"properties":{"pond":"020126","name":"LITTLE ECHO POND","specieslist":"NONE","fishsurveydate":1998,"avgph":"4.3"}},{"type":"Feature","geometry":{"type":"Point","coordinates":[-74.37322,44.313765]},"properties":{"pond":"020138","name":"EAST COPPERAS POND","specieslist":"Central mudminnow, Central mudminnow","fishsurveydate":1998,"avgph":"4.6"}},{"type":"Feature","geometry":{"type":"Point","coordinates":[-74.371978,44.337283]},"properties":{"pond":"020143","name":"MIDDLE POND","specieslist":"Northern pike, Golden shiner, Fallfish, Brown bullhead, Pumpkinseed, Largemouth bass, Yellow perch, Northern pike, Golden shiner, Brown bullhead, Pumpkinseed, Largemouth bass, Yellow perch","fishsurveydate":1998,"avgph":"6.6"}},{"type":"Feature","geometry":{"type":"Point","coordinates":[-74.3007,44.345917]},"properties":{"pond":"020188","name":"SUNDAY POND","specieslist":"Brook trout, Brook trout, Brook trout, Brook trout, Lake trout","fishsurveydate":2000,"avgph":"5.1"}},{"type":"Feature","geometry":{"type":"Point","coordinates":[-74.294333,44.352711]},"properties":{"pond":"020197","name":"SOCHIA POND","specieslist":"NONE, NONE","fishsurveydate":1995,"avgph":"4.8"}},{"type":"Feature","geometry":{"type":"Point","coordinates":[-73.902791,44.32317]},"properties":{"pond":"020233","name":"OWEN POND","specieslist":"Brown trout, Brook trout, N. redbelly dace, Fathead minnow, Blacknose dace, Creek chub, White sucker, Pumpkinseed, Common shiner, Brown trout, Brook trout, Creek chub, Pearl dace, White sucker, Pumpkinseed","fishsurveydate":1994,"avgph":"6.7"}},{"type":"Feature","geometry":{"type":"Point","coordinates":[-73.967435,44.180318]},"properties":{"pond":"020264","name":"HEART LAKE","specieslist":"Brook trout, Lake chub, Golden shiner, White sucker, Brown bullhead, Smallmouth bass, Brook trout, Lake chub, White sucker, Brown bullhead","fishsurveydate":2004,"avgph":"6.4"}},{"type":"Feature","geometry":{"type":"Point","coordinates":[-73.951415,44.158753]},"properties":{"pond":"020265","name":"MARCY DAM POND","specieslist":"Brook trout, Brook trout","fishsurveydate":2001,"avgph":"5.9"}},{"type":"Feature","geometry":{"type":"Point","coordinates":[-74.495445,44.657284]},"properties":{"pond":"030171","name":"GRASS POND","specieslist":"NONE, NONE","fishsurveydate":1998,"avgph":"4.6"}},{"type":"Feature","geometry":{"type":"Point","coordinates":[-74.496365,44.660259]},"properties":{"pond":"030172","name":"LITTLE CLEAR POND","specieslist":"Brook trout, Northern pike, Brown bullhead, Brook trout, Brown bullhead","fishsurveydate":1994,"avgph":"6.2"}},{"type":"Feature","geometry":{"type":"Point","coordinates":[-74.298506,44.435194]},"properties":{"pond":"030256","name":"BLACK POND","specieslist":"Brook trout, Brook trout, Golden shiner, Yellow perch","fishsurveydate":1998,"avgph":"7.1"}},{"type":"Feature","geometry":{"type":"Point","coordinates":[-75.043515,43.962565]},"properties":{"pond":"040186","name":"LOON HOLLOW POND","specieslist":"NONE, NONE","fishsurveydate":2002,"avgph":"4.7"}},{"type":"Feature","geometry":{"type":"Point","coordinates":[-74.957364,43.9703]},"properties":{"pond":"040210","name":"WILLYS LAKE","specieslist":"NONE, NONE","fishsurveydate":2002,"avgph":"4.9"}},{"type":"Feature","geometry":{"type":"Point","coordinates":[-74.952681,43.870079]},"properties":{"pond":"040576","name":"WOODS LAKE","specieslist":"Brook trout","fishsurveydate":1997,"avgph":"6.0"}},{"type":"Feature","geometry":{"type":"Point","coordinates":[-75.099617,43.683953]},"properties":{"pond":"040704","name":"MIDDLE SETTLEMENT LAKE","specieslist":"Brook trout, Central mudminnow, Brook trout, Central mudminnow","fishsurveydate":2003,"avgph":"5.5"}},{"type":"Feature","geometry":{"type":"Point","coordinates":[-75.064623,43.690344]},"properties":{"pond":"040706","name":"GRASS POND","specieslist":"Brook trout, Central mudminnow, Common shiner, N. redbelly dace, Creek chub, White sucker, Brook trout, Central mudminnow, Common shiner, Creek chub, White sucker","fishsurveydate":1999,"avgph":"5.8"}},{"type":"Feature","geometry":{"type":"Point","coordinates":[-75.100375,43.699295]},"properties":{"pond":"040707","name":"MIDDLE BRANCH LAKE","specieslist":"Golden shiner, Brook trout, Common shiner, Fathead minnow, Blacknose dace, Creek chub, White sucker, Pumpkinseed, Brook trout, Central mudminnow, Golden shiner, Common shiner, Creek chub, White sucker, Pumpkinseed","fishsurveydate":2004,"avgph":"6.3"}},{"type":"Feature","geometry":{"type":"Point","coordinates":[-74.915933,43.760616]},"properties":{"pond":"040739","name":"LAKE RONDAXE","specieslist":"Golden shiner, Common shiner, Creek chub, White sucker, Brown bullhead, Banded killifish, Pumpkinseed, Brook trout, Smallmouth bass, Largemouth bass, Yellow perch, Atlantic salmon, Brook trout, Common shiner, Creek chub, White sucker, Brown bullhead, Banded killifish, Rock bass, Pumpkinseed","fishsurveydate":2000,"avgph":"6.2"}},{"type":"Feature","geometry":{"type":"Point","coordinates":[-74.852973,43.781333]},"properties":{"pond":"040746","name":"MOSS LAKE","specieslist":"Brook trout, Lake trout, Central mudminnow, Golden shiner, Common shiner, Creek chub, White sucker, Brown bullhead, Pumpkinseed, Largemouth bass, Yellow perch, Brook trout, Central mudminnow, Golden shiner, Common shiner, White sucker, Brown bullhead, Pumpkinseed, Yellow perch","fishsurveydate":2000,"avgph":"6.5"}},{"type":"Feature","geometry":{"type":"Point","coordinates":[-74.812398,43.789233]},"properties":{"pond":"040747","name":"CASCADE LAKE","specieslist":"Yellow perch, Brook trout, Golden shiner, Common shiner, Creek chub, White sucker, Brown bullhead, Pumpkinseed, Brook trout, White sucker, Brown bullhead, Yellow perch","fishsurveydate":1999,"avgph":"6.4"}},{"type":"Feature","geometry":{"type":"Point","coordinates":[-74.853024,43.780451]},"properties":{"pond":"040748","name":"BUBB LAKE OUTLET-STA1","specieslist":"Brown bullhead, White sucker, Brown bullhead, Pumpkinseed, Yellow perch, Brook trout, Central mudminnow, Creek chub","fishsurveydate":1995,"avgph":"6.3"}},{"type":"Feature","geometry":{"type":"Point","coordinates":[-74.846328,43.774923]},"properties":{"pond":"040748","name":"BUBB LAKE-STA2","specieslist":"Central mudminnow, White sucker, Creek chub, Brown bullhead, Brook trout, Pumpkinseed, Brown bullhead, Yellow perch","fishsurveydate":1995,"avgph":"6.3"}},{"type":"Feature","geometry":{"type":"Point","coordinates":[-74.870332,43.793663]},"properties":{"pond":"040750","name":"DART LAKE","specieslist":"Golden shiner, Common shiner, Creek chub, White sucker, Brown bullhead, Banded killifish, Rock bass, Pumpkinseed, Yellow perch, Brook trout, Common shiner, Creek chub, White sucker, Brown bullhead, Banded killifish, Yellow perch","fishsurveydate":2000,"avgph":"5.7"}},{"type":"Feature","geometry":{"type":"Point","coordinates":[-74.849138,43.80391]},"properties":{"pond":"040750A","name":"WINDFALL POND OUTLET-STA1","specieslist":"N. redbelly dace, White sucker, Blacknose dace, Creek chub, Creek chub, Blacknose dace, White sucker, N. redbelly dace, Brook trout","fishsurveydate":1995,"avgph":"6.4"}},{"type":"Feature","geometry":{"type":"Point","coordinates":[-74.831009,43.805064]},"properties":{"pond":"040750A","name":"WINDFALL POND-STA2","specieslist":"N. redbelly dace, Blacknose dace, Creek chub, White sucker, Brook trout, N. redbelly dace, Blacknose dace, Creek chub, White sucker","fishsurveydate":1995,"avgph":"6.4"}},{"type":"Feature","geometry":{"type":"Point","coordinates":[-74.856056,43.816957]},"properties":{"pond":"040752","name":"BIG MOOSE LAKE","specieslist":"Yellow perch, White sucker, Brook trout, Creek chub, Banded killifish, Common shiner, Golden shiner, Lake trout, Pumpkinseed, Brown bullhead, Largemouth bass","fishsurveydate":2000,"avgph":"5.6"}},{"type":"Feature","geometry":{"type":"Point","coordinates":[-74.883743,43.81336]},"properties":{"pond":"040753","name":"WEST POND OUTLET-STA1","specieslist":"Brown bullhead, Brown bullhead, Brook trout","fishsurveydate":1999,"avgph":"5.1"}},{"type":"Feature","geometry":{"type":"Point","coordinates":[-74.883149,43.811657]},"properties":{"pond":"040753","name":"WEST POND-STA2","specieslist":"Brown bullhead, Brook trout, Brown bullhead","fishsurveydate":1999,"avgph":"5.1"}},{"type":"Feature","geometry":{"type":"Point","coordinates":[-74.882582,43.821669]},"properties":{"pond":"040754","name":"SQUASH POND OUTLET-STA1","specieslist":"NONE, NONE","fishsurveydate":1998,"avgph":"4.5"}},{"type":"Feature","geometry":{"type":"Point","coordinates":[-74.886331,43.825382]},"properties":{"pond":"040754","name":"SQUASH POND-STA2","specieslist":"NONE, NONE","fishsurveydate":1998,"avgph":"4.5"}},{"type":"Feature","geometry":{"type":"Point","coordinates":[-74.838501,43.825118]},"properties":{"pond":"040777","name":"CONSTABLE POND OUTLET-STA1","specieslist":"Brown bullhead, Brook trout, Brown bullhead, Pumpkinseed, Yellow perch","fishsurveydate":1999,"avgph":"5.2"}},{"type":"Feature","geometry":{"type":"Point","coordinates":[-74.806421,43.83101]},"properties":{"pond":"040777","name":"CONSTABLE POND-STA2","specieslist":"Pumpkinseed, Brook trout, Brown bullhead, Brown bullhead, Yellow perch","fishsurveydate":1999,"avgph":"5.2"}},{"type":"Feature","geometry":{"type":"Point","coordinates":[-74.8124,43.713006]},"properties":{"pond":"040826","name":"LIMEKILN LAKE","specieslist":"White sucker, Splake, Golden shiner, Brown bullhead, Banded killifish, Rock bass, Pumpkinseed, Yellow perch, Splake, Golden shiner, White sucker, Brown bullhead, Rock bass, Pumpkinseed, Yellow perch","fishsurveydate":2004,"avgph":"6.1"}},{"type":"Feature","geometry":{"type":"Point","coordinates":[-74.738503,43.636174]},"properties":{"pond":"040850","name":"SQUAW LAKE","specieslist":"Creek chub, Brook trout, Blacknose dace, Creek chub, White sucker, Brook trout, White sucker","fishsurveydate":1994,"avgph":"5.9"}},{"type":"Feature","geometry":{"type":"Point","coordinates":[-74.760969,43.623122]},"properties":{"pond":"040852","name":"INDIAN LAKE","specieslist":"Central mudminnow, NONE","fishsurveydate":1994,"avgph":"5.0"}},{"type":"Feature","geometry":{"type":"Point","coordinates":[-74.661094,43.600765]},"properties":{"pond":"040874","name":"BROOK TROUT LAKE","specieslist":"NONE, NONE","fishsurveydate":2002,"avgph":"5.5"}},{"type":"Feature","geometry":{"type":"Point","coordinates":[-74.557933,43.646729]},"properties":{"pond":"040887","name":"LOST POND","specieslist":"Brook trout, Brook trout","fishsurveydate":1994,"avgph":"5.2"}},{"type":"Feature","geometry":{"type":"Point","coordinates":[-75.226657,43.565908]},"properties":{"pond":"040905","name":"BARNES LAKE","specieslist":"NONE, NONE","fishsurveydate":2002,"avgph":"5.3"}},{"type":"Feature","geometry":{"type":"Point","coordinates":[-74.876545,43.50979]},"properties":{"pond":"041004","name":"SOUTH LAKE","specieslist":"Brook trout, Atlantic salmon, Lake chub, N. redbelly dace, Blacknose dace, Creek chub, Brown bullhead","fishsurveydate":2002,"avgph":"5.5"}},{"type":"Feature","geometry":{"type":"Point","coordinates":[-74.947657,43.522846]},"properties":{"pond":"041007","name":"NORTH LAKE","specieslist":"Brown bullhead, Golden shiner, White sucker, Brown bullhead, Yellow perch, Brook trout, Lake chub, Golden shiner, Creek chub, White sucker, Brook trout","fishsurveydate":2001,"avgph":"5.3"}},{"type":"Feature","geometry":{"type":"Point","coordinates":[-74.246235,43.37028]},"properties":{"pond":"050215","name":"WILLIS LAKE-STA1","specieslist":"Yellow perch, Smallmouth bass, Largemouth bass, Chain pickerel, Pumpkinseed, Golden shiner, Yellow perch, Brown bullhead, Largemouth bass, Brown bullhead, Pumpkinseed, Golden shiner","fishsurveydate":2001,"avgph":"6.0"}},{"type":"Feature","geometry":{"type":"Point","coordinates":[-74.243007,43.369827]},"properties":{"pond":"050215","name":"WILLIS LAKE-STA2","specieslist":"Yellow perch, Chain pickerel, Golden shiner, Brown bullhead, Pumpkinseed, Smallmouth bass, Largemouth bass, Golden shiner, Brown bullhead, Pumpkinseed, Largemouth bass, Yellow perch","fishsurveydate":2001,"avgph":"6.0"}},{"type":"Feature","geometry":{"type":"Point","coordinates":[-74.585885,43.302121]},"properties":{"pond":"050259","name":"JOCKEYBUSH LAKE","specieslist":"Brook trout, Brook trout","fishsurveydate":1996,"avgph":"5.4"}},{"type":"Feature","geometry":{"type":"Point","coordinates":[-73.83082,43.995676]},"properties":{"pond":"050458","name":"CLEAR POND","specieslist":"Cutlips minnow, Common shiner, Bluntnose minnow, Creek chub, Banded killifish, Pumpkinseed, Brook trout, Cutlips minnow, Common shiner, Bluntnose minnow, Longnose dace, Creek chub, White sucker, Brown bullhead, Banded killifish, Pumpkinseed, Rainbow smelt","fishsurveydate":1995,"avgph":"6.9"}},{"type":"Feature","geometry":{"type":"Point","coordinates":[-74.093748,43.858923]},"properties":{"pond":"050577","name":"NATE POND","specieslist":"Creek chub, Brook trout, Golden shiner, Creek chub, Redbreast sunfish, Brook trout, Golden shiner","fishsurveydate":2005,"avgph":"6.5"}},{"type":"Feature","geometry":{"type":"Point","coordinates":[-74.47894,43.838027]},"properties":{"pond":"050649","name":"LONG POND","specieslist":"NONE, NONE","fishsurveydate":1998,"avgph":"4.6"}},{"type":"Feature","geometry":{"type":"Point","coordinates":[-74.488769,43.681737]},"properties":{"pond":"050669","name":"CARRY POND","specieslist":"Brook trout, NONE","fishsurveydate":1994,"avgph":"5.1"}},{"type":"Feature","geometry":{"type":"Point","coordinates":[-74.235542,43.982336]},"properties":{"pond":"050684","name":"ARBUTUS LAKE","specieslist":"Blacknose dace, Brook trout, N. redbelly dace, Brown bullhead","fishsurveydate":2001,"avgph":"6.5"}},{"type":"Feature","geometry":{"type":"Point","coordinates":[-73.982644,44.119376]},"properties":{"pond":"050706","name":"LAKE COLDEN","specieslist":"NONE, NONE","fishsurveydate":2004,"avgph":"5.2"}},{"type":"Feature","geometry":{"type":"Point","coordinates":[-73.969815,44.13057]},"properties":{"pond":"050707","name":"AVALANCHE LAKE","specieslist":"NONE, NONE","fishsurveydate":2004,"avgph":"5.1"}},{"type":"Feature","geometry":{"type":"Point","coordinates":[-74.441282,44.161524]},"properties":{"pond":"060182","name":"LITTLE SIMON POND","specieslist":"White sucker, Brook trout, Lake trout, Creek chub, Brook trout, Lake trout, Creek chub","fishsurveydate":2002,"avgph":"6.5"}},{"type":"Feature","geometry":{"type":"Point","coordinates":[-74.628282,43.766111]},"properties":{"pond":"060313","name":"SAGAMORE LAKE","specieslist":"Brook trout, Lake trout, Lake chub, Creek chub, Longnose sucker, White sucker, Brown bullhead, Pumpkinseed, Smallmouth bass, Yellow perch, Lake whitefish, Brook trout, Lake trout, Creek chub, Longnose sucker, White sucker, Brown bullhead, Yellow perch","fishsurveydate":2001,"avgph":"6.0"}},{"type":"Feature","geometry":{"type":"Point","coordinates":[-74.651298,43.794861]},"properties":{"pond":"060315A","name":"RAQUETTE LAKE RESERVOIR","specieslist":"Brook trout, Brown bullhead, Brook trout, Brown bullhead","fishsurveydate":2001,"avgph":"5.6"}},{"type":"Feature","geometry":{"type":"Point","coordinates":[-74.803404,43.806695]},"properties":{"pond":"060329","name":"QUEER LAKE","specieslist":"Brook trout, Lake trout, Golden shiner, White sucker, Brown bullhead, Banded killifish, Pumpkinseed, Brook trout, Golden shiner, White sucker, Brown bullhead, Pumpkinseed","fishsurveydate":1999,"avgph":"5.7"}},{"type":"Feature","geometry":{"type":"Point","coordinates":[-74.504135,43.184609]},"properties":{"pond":"070729","name":"OTTER LAKE","specieslist":"Brown bullhead","fishsurveydate":1999,"avgph":"5.3"}},{"type":"Feature","geometry":{"type":"Point","coordinates":[-74.635705,43.418125]},"properties":{"pond":"070859","name":"G LAKE","specieslist":"Brook trout, Golden shiner, Brown bullhead","fishsurveydate":1994,"avgph":"5.6"}}]}